City_ID,City,Country,Date,Lat,Lng,Max Temp,Humidity,Cloudiness,Wind Speed
0,Oranjemund,NA,2021-05-17 07:45:08,-28.55,16.4333,61.61,70,0,7.38
1,Magelang,ID,2021-05-17 07:45:08,-7.4706,110.2178,91.4,55,20,12.66
2,Puerto Ayora,EC,2021-05-17 07:45:09,-0.7393,-90.3518,75.99,95,45,5.01
3,Jamestown,US,2021-05-17 07:43:55,42.097,-79.2353,48.2,71,1,4.61
4,Sao Jose Da Coroa Grande,BR,2021-05-17 07:45:09,-8.8978,-35.1478,75.49,77,86,7.4
5,New Norfolk,AU,2021-05-17 07:45:10,-42.7826,147.0587,51.01,71,71,3.0
6,Port Macquarie,AU,2021-05-17 07:45:10,-31.4333,152.9167,55.99,78,0,10.67
7,Omboue,GA,2021-05-17 07:45:11,-1.5746,9.2618,77.79,88,100,1.81
8,Vereshchagino,RU,2021-05-17 07:41:22,58.0789,54.6557,78.08,40,2,11.41
9,Provideniya,RU,2021-05-17 07:45:12,64.3833,-173.3,30.2,86,90,6.71
10,Avarua,CK,2021-05-17 07:45:12,-21.2078,-159.775,77.0,78,75,10.36
11,Busselton,AU,2021-05-17 07:45:13,-33.65,115.3333,69.76,77,64,12.19
12,Marietta,US,2021-05-17 07:44:24,33.9526,-84.5499,59.0,77,1,3.27
13,Cloquet,US,2021-05-17 07:45:14,46.7216,-92.4594,55.0,87,1,5.75
14,Olinda,BR,2021-05-17 07:42:11,-8.0089,-34.8553,71.6,83,40,5.75
15,Saldanha,ZA,2021-05-17 07:45:14,-33.0117,17.9442,48.2,63,0,3.44
16,Taltal,CL,2021-05-17 07:40:20,-25.4,-70.4833,62.01,80,53,0.38
17,Pokhara,NP,2021-05-17 07:45:15,28.2333,83.9833,93.92,22,43,5.95
18,Castro,BR,2021-05-17 07:45:15,-24.7911,-50.0119,51.3,93,0,2.59
19,Hofn,IS,2021-05-17 07:45:16,64.2539,-15.2082,38.98,57,100,12.8
20,Maunatlala,BW,2021-05-17 07:45:16,-22.597,27.6301,73.4,40,0,5.75
21,Mataura,NZ,2021-05-17 07:45:17,-46.1927,168.8643,46.0,89,100,3.0
22,Barrow,US,2021-05-17 07:45:17,71.2906,-156.7887,26.6,86,90,11.5
23,Pudozh,RU,2021-05-17 07:45:17,61.8099,36.5345,64.99,67,13,5.73
24,Acapulco,MX,2021-05-17 07:45:18,16.8634,-99.8901,81.77,74,6,2.77
25,Lorengau,PG,2021-05-17 07:45:18,-2.0226,147.2712,81.48,80,86,7.63
26,Rikitea,PF,2021-05-17 07:45:19,-23.1203,-134.9692,74.7,61,76,6.51
27,Benjamin Hill,MX,2021-05-17 07:45:19,30.1667,-111.1,62.92,31,0,2.1
28,Kodiak,US,2021-05-17 07:45:20,57.79,-152.4072,42.8,75,90,3.44
29,Kozhva,RU,2021-05-17 07:45:20,65.1073,57.0459,44.92,81,100,8.08
30,Arraial Do Cabo,BR,2021-05-17 07:45:21,-22.9661,-42.0278,69.15,81,16,12.55
31,Geraldton,AU,2021-05-17 07:45:21,-28.7667,114.6,78.8,41,96,11.5
32,Makaha,US,2021-05-17 07:45:22,21.4694,-158.2175,73.4,73,90,8.05
33,Nemuro,JP,2021-05-17 07:45:22,43.3236,145.575,53.6,82,75,9.22
34,Mar Del Plata,AR,2021-05-17 07:45:23,-38.0023,-57.5575,50.0,93,20,4.61
35,Richards Bay,ZA,2021-05-17 07:44:34,-28.783,32.0377,69.82,71,76,7.94
36,Suez,EG,2021-05-17 07:45:23,29.9737,32.5263,79.14,42,46,9.37
37,Kieta,PG,2021-05-17 07:45:24,-6.2167,155.6333,80.55,84,84,6.98
38,Zhigansk,RU,2021-05-17 07:45:24,66.7697,123.3711,48.9,67,85,17.2
39,Zhangye,CN,2021-05-17 07:45:25,38.9342,100.4517,72.9,13,99,6.4
40,Lasa,IT,2021-05-17 07:45:25,46.6166,10.7002,57.2,100,40,5.75
41,Salalah,OM,2021-05-17 07:45:25,17.0151,54.0924,91.4,62,0,4.61
42,Brenham,US,2021-05-17 07:45:26,30.1669,-96.3977,71.6,94,90,3.44
43,Yellowknife,CA,2021-05-17 07:45:26,62.456,-114.3525,33.8,64,90,11.5
44,Montoro,ES,2021-05-17 07:42:06,38.0241,-4.3834,72.0,64,0,2.3
45,Mutis,CO,2021-05-17 07:45:28,6.2262,-77.4044,77.77,86,65,2.55
46,Port Elizabeth,ZA,2021-05-17 07:45:28,-33.918,25.5701,60.8,55,0,16.11
47,Makat,KZ,2021-05-17 07:45:28,47.6469,53.3463,91.76,9,0,18.14
48,Troitsko-Pechorsk,RU,2021-05-17 07:45:29,62.7084,56.1964,69.84,50,92,10.71
49,Amazar,RU,2021-05-17 07:45:30,53.858,120.875,54.72,37,100,3.87
50,Bozeman,US,2021-05-17 07:45:30,45.6796,-111.0386,53.01,58,1,3.44
51,Carnarvon,AU,2021-05-17 07:45:30,-24.8667,113.6333,78.8,61,93,9.22
52,Togur,RU,2021-05-17 07:45:31,58.3631,82.8265,52.75,77,100,1.21
53,Norman Wells,CA,2021-05-17 07:45:31,65.282,-126.8329,41.0,65,75,6.91
54,Nyurba,RU,2021-05-17 07:45:32,63.2842,118.3319,35.96,31,100,10.18
55,Port Alfred,ZA,2021-05-17 07:45:32,-33.5906,26.891,62.58,60,15,18.45
56,Ostersund,SE,2021-05-17 07:45:33,63.1792,14.6357,44.6,93,90,6.91
57,Kumba,CM,2021-05-17 07:45:33,4.6363,9.4469,75.33,87,100,1.03
58,Machilipatnam,IN,2021-05-17 07:45:34,16.1667,81.1333,96.8,56,40,5.75
59,Butaritari,KI,2021-05-17 07:45:34,3.0707,172.7902,83.73,77,69,17.54
60,Hilo,US,2021-05-17 07:42:04,19.7297,-155.09,75.2,69,75,6.82
61,Samsun,TR,2021-05-17 07:45:35,41.25,36.3333,64.99,77,75,6.91
62,Keetmanshoop,NA,2021-05-17 07:45:35,-26.5833,18.1333,55.4,54,0,2.3
63,Severo-Kurilsk,RU,2021-05-17 07:45:36,50.6789,156.125,39.24,97,100,4.99
64,Miles City,US,2021-05-17 07:45:37,46.4083,-105.8406,57.2,47,1,5.75
65,Bethel,US,2021-05-17 07:45:37,41.3712,-73.414,48.99,81,90,3.31
66,Soe,ID,2021-05-17 07:44:12,-9.8607,124.284,72.18,68,92,8.03
67,Huarmey,PE,2021-05-17 07:45:38,-10.0681,-78.1522,64.36,89,5,7.67
68,Aliwal North,ZA,2021-05-17 07:45:38,-30.6937,26.7114,53.04,54,1,6.29
69,Vardo,NO,2021-05-17 07:45:39,70.3705,31.1107,35.6,100,90,9.22
70,Atuona,PF,2021-05-17 07:45:39,-9.8,-139.0333,79.45,68,43,14.36
71,Victoria,HK,2021-05-17 07:42:15,22.2855,114.1577,91.0,75,41,1.01
72,Louis Trichardt,ZA,2021-05-17 07:45:40,-23.0439,29.9032,74.34,33,5,4.76
73,Hobart,AU,2021-05-17 07:43:51,-42.8794,147.3294,51.01,57,20,11.5
74,Thompson,CA,2021-05-17 07:45:41,55.7435,-97.8558,26.6,74,40,5.75
75,Codrington,AU,2021-05-17 07:45:41,-38.2667,141.9667,52.36,82,8,5.61
76,Saskylakh,RU,2021-05-17 07:45:41,71.9167,114.0833,25.83,93,100,20.49
77,Palm Springs,US,2021-05-17 07:45:42,33.8303,-116.5453,71.6,37,1,6.91
78,Dikson,RU,2021-05-17 07:45:42,73.5069,80.5464,27.14,75,100,9.78
79,Veraval,IN,2021-05-17 07:45:42,20.9,70.3667,82.22,76,100,33.6
80,Srandakan,ID,2021-05-17 07:45:43,-7.9386,110.2506,82.53,72,93,11.45
81,Itamaraju,BR,2021-05-17 07:45:43,-17.0392,-39.5311,62.74,95,96,2.06
82,Punta Arenas,CL,2021-05-17 07:42:31,-53.15,-70.9167,44.6,87,90,23.02
83,Muscatine,US,2021-05-17 07:45:44,41.4667,-91.1335,59.0,100,90,6.91
84,Dire Dawa,ET,2021-05-17 07:45:44,9.5931,41.8661,85.08,40,81,6.2
85,Rio Grande,BR,2021-05-17 07:45:45,-32.035,-52.0986,53.89,90,47,6.53
86,Sisimiut,GL,2021-05-17 07:45:45,66.9395,-53.6735,33.73,69,52,2.64
87,Elblag,PL,2021-05-17 07:45:46,54.1522,19.4088,62.01,67,0,9.22
88,Hithadhoo,MV,2021-05-17 07:45:47,-0.6,73.0833,84.74,71,56,9.24
89,Fort Nelson,CA,2021-05-17 07:45:03,58.8053,-122.7002,41.0,93,40,3.44
90,Mbuji-Mayi,CD,2021-05-17 07:45:47,-6.15,23.6,83.25,46,98,6.35
91,Luderitz,NA,2021-05-17 07:45:48,-26.6481,15.1594,66.31,51,4,10.69
92,Talnakh,RU,2021-05-17 07:45:48,69.4865,88.3972,26.35,87,100,5.37
93,Bluff,NZ,2021-05-17 07:45:49,-46.6,168.3333,46.0,89,100,3.0
94,Businga,CD,2021-05-17 07:45:49,3.3333,20.8833,85.87,60,44,1.68
95,Kapaa,US,2021-05-17 07:45:50,22.0752,-159.319,73.4,68,20,17.27
96,Sept-Iles,CA,2021-05-17 07:45:50,50.2001,-66.3821,42.8,93,98,5.75
97,Port Lincoln,AU,2021-05-17 07:45:50,-34.7333,135.8667,58.93,59,100,4.63
98,Qaanaaq,GL,2021-05-17 07:45:51,77.484,-69.3632,21.16,90,96,2.35
99,Fairbanks,US,2021-05-17 07:45:15,64.8378,-147.7164,48.2,93,90,3.44
100,Hermanus,ZA,2021-05-17 07:45:51,-34.4187,19.2345,55.0,87,64,1.01
101,Magadi,IN,2021-05-17 07:45:52,12.9667,77.2333,88.0,54,40,4.61
102,Cape Town,ZA,2021-05-17 07:42:02,-33.9258,18.4232,57.2,77,20,5.75
103,Nome,US,2021-05-17 07:45:52,64.5011,-165.4064,35.6,75,1,3.44
104,Hovd,MN,2021-05-17 07:45:53,48.0056,91.6419,70.23,18,38,5.1
105,Ostrovnoy,RU,2021-05-17 07:45:53,68.0531,39.5131,41.02,75,100,4.47
106,Caluquembe,AO,2021-05-17 07:45:55,-13.7833,14.6833,67.19,45,0,3.58
107,Turukhansk,RU,2021-05-17 07:45:55,65.8167,87.9833,32.16,59,99,5.53
108,Stornoway,GB,2021-05-17 07:45:56,58.2093,-6.3865,48.2,93,75,4.61
109,Chapais,CA,2021-05-17 07:45:56,49.7834,-74.8492,44.6,100,40,3.44
110,Petropavlovsk-Kamchatskiy,RU,2021-05-17 07:45:56,53.0452,158.6483,39.2,93,75,11.18
111,Ouango,CF,2021-05-17 07:45:57,4.3133,22.5552,85.51,59,86,1.05
112,Yar-Sale,RU,2021-05-17 07:45:57,66.8333,70.8333,32.72,91,75,12.53
113,Luganville,VU,2021-05-17 07:45:58,-15.5333,167.1667,80.6,81,82,8.72
114,Amahai,ID,2021-05-17 07:45:58,-3.3333,128.9167,81.09,85,74,9.1
115,Kaniama,CD,2021-05-17 07:45:58,-7.5667,24.1833,80.17,43,85,7.54
116,Torbay,CA,2021-05-17 07:45:59,47.6666,-52.7314,36.0,93,90,10.36
117,Ribeira Grande,PT,2021-05-17 07:45:59,38.5167,-28.7,64.4,94,75,12.66
118,Chaohu,CN,2021-05-17 07:46:00,31.6,117.8667,73.4,49,75,8.95
119,Beringovskiy,RU,2021-05-17 07:46:00,63.05,179.3167,30.94,96,87,1.05
120,Olafsvik,IS,2021-05-17 07:46:01,64.8945,-23.7142,37.27,71,100,17.02
121,Tasiilaq,GL,2021-05-17 07:46:01,65.6145,-37.6368,26.6,68,9,4.0
122,Te Anau,NZ,2021-05-17 07:46:02,-45.4167,167.7167,43.95,91,100,4.07
123,Dunedin,NZ,2021-05-17 07:46:02,-45.8742,170.5036,53.01,66,100,5.01
124,Morada Nova,BR,2021-05-17 07:46:03,-5.1067,-38.3725,71.94,86,55,2.8
125,Shenjiamen,CN,2021-05-17 07:46:03,29.9576,122.298,62.33,80,82,12.75
126,Alindao,CF,2021-05-17 07:46:04,5.0267,21.2088,84.63,62,70,1.74
127,Marsala,IT,2021-05-17 07:46:04,37.7966,12.4352,71.6,60,0,5.75
128,Dubbo,AU,2021-05-17 07:44:02,-32.25,148.6167,51.8,62,2,8.05
129,Katsuura,JP,2021-05-17 07:46:05,35.1333,140.3,75.99,100,75,35.68
130,Lebu,CL,2021-05-17 07:46:05,-37.6167,-73.65,52.32,73,100,4.16
131,San,ML,2021-05-17 07:45:03,13.3034,-4.8956,92.8,36,81,10.36
132,Nikolskoye,RU,2021-05-17 07:46:06,59.7035,30.7861,71.01,52,0,13.42
133,Jerantut,MY,2021-05-17 07:46:06,3.936,102.3626,88.48,70,98,2.59
134,Comodoro Rivadavia,AR,2021-05-17 07:46:07,-45.8667,-67.5,39.2,87,0,2.3
135,Cabo San Lucas,MX,2021-05-17 07:42:42,22.8909,-109.9124,75.0,81,3,12.03
136,Portland,US,2021-05-17 07:41:22,45.5234,-122.6762,59.0,72,1,6.91
137,Kaitangata,NZ,2021-05-17 07:46:08,-46.2817,169.8464,50.0,73,100,1.99
138,Caravelas,BR,2021-05-17 07:46:08,-17.7125,-39.2481,69.4,86,92,3.47
139,Kysyl-Syr,RU,2021-05-17 07:46:09,63.8986,122.7617,41.38,30,100,11.32
140,Utrecht,NL,2021-05-17 07:44:34,52.0,5.25,52.0,93,100,5.99
141,Asau,RO,2021-05-17 07:46:10,46.4333,26.4,64.4,68,40,4.61
142,Bairiki,KI,2021-05-17 07:46:10,1.3292,172.9752,80.6,89,75,8.05
143,Prieska,ZA,2021-05-17 07:46:11,-29.6641,22.7474,55.56,50,0,5.41
144,Cidreira,BR,2021-05-17 07:46:11,-30.1811,-50.2056,58.21,93,90,7.96
145,Atherton,GB,2021-05-17 07:46:12,53.5237,-2.4935,55.0,85,97,1.01
146,Verkhnyaya Toyma,RU,2021-05-17 07:46:13,62.2349,44.9985,58.33,74,100,7.99
147,Georgetown,MY,2021-05-17 07:45:36,5.4112,100.3354,88.0,74,20,9.22
148,Ahipara,NZ,2021-05-17 07:46:14,-35.1667,173.1667,61.57,77,4,13.56
149,Oussouye,SN,2021-05-17 07:46:14,12.485,-16.5469,71.6,94,0,4.61
150,Cayenne,GF,2021-05-17 07:45:46,4.9333,-52.3333,75.99,90,95,5.75
151,Naze,JP,2021-05-17 07:46:15,28.3667,129.4833,78.8,89,75,11.5
152,Moses Lake,US,2021-05-17 07:46:15,47.1301,-119.2781,69.8,40,1,8.05
153,Kirakira,SB,2021-05-17 07:46:16,-10.4544,161.9205,80.67,85,44,9.48
154,Aykhal,RU,2021-05-17 07:46:16,66.0,111.5,23.14,92,100,20.65
155,Roma,US,2021-05-17 07:46:17,43.2128,-75.4557,51.01,76,1,1.88
156,Abidjan,CI,2021-05-17 07:44:05,5.3094,-4.0197,82.4,94,20,4.61
157,Vanimo,PG,2021-05-17 07:46:17,-2.6741,141.3028,83.08,80,88,5.44
158,Malanje,AO,2021-05-17 07:46:18,-9.5402,16.341,70.03,57,10,5.57
159,Zlobin,HR,2021-05-17 07:46:18,45.2924,14.6541,64.4,82,40,12.66
160,Norrtalje,SE,2021-05-17 07:46:19,59.758,18.705,50.0,100,90,9.22
161,Cherskiy,RU,2021-05-17 07:46:19,68.75,161.3,37.02,85,46,5.5
162,Daru,PG,2021-05-17 07:46:20,-9.0763,143.2092,79.65,88,93,15.5
163,Roald,NO,2021-05-17 07:46:20,62.5833,6.1333,50.0,81,20,3.44
164,Christchurch,NZ,2021-05-17 07:45:03,-43.5333,172.6333,48.99,93,36,3.44
165,Pirajui,BR,2021-05-17 07:46:21,-21.9986,-49.4572,66.2,82,0,9.22
166,Albany,US,2021-05-17 07:43:24,42.6001,-73.9662,51.01,63,9,2.62
167,Sola,VU,2021-05-17 07:46:21,-13.8833,167.55,82.72,75,36,18.79
168,Ilulissat,GL,2021-05-17 07:46:22,69.2167,-51.1,30.2,93,90,8.34
169,Naron,ES,2021-05-17 07:46:22,43.5167,-8.1528,59.0,100,20,3.44
170,Khani,GE,2021-05-17 07:46:23,41.9563,42.9566,64.4,63,75,9.22
171,Axim,GH,2021-05-17 07:46:23,4.8699,-2.2405,81.72,78,100,2.71
172,West Chester,US,2021-05-17 07:46:23,39.9607,-75.6055,51.01,81,1,3.22
173,Amapa,BR,2021-05-17 07:46:24,1.0,-52.0,70.81,99,96,0.51
174,Lubao,PH,2021-05-17 07:46:24,14.9167,120.55,100.4,37,75,9.22
175,Bardiyah,LY,2021-05-17 07:46:25,31.7561,25.0865,71.67,56,0,16.08
176,Lerwick,GB,2021-05-17 07:46:25,60.1545,-1.1494,48.2,81,75,5.75
177,Arcachon,FR,2021-05-17 07:46:26,44.5875,-1.0519,59.0,72,75,16.11
178,Kulai,MY,2021-05-17 07:46:26,1.6561,103.6032,87.8,74,40,3.44
179,Banda Aceh,ID,2021-05-17 07:46:27,5.5577,95.3222,85.14,76,100,13.44
180,College,US,2021-05-17 07:46:27,64.8569,-147.8028,48.2,87,75,4.99
181,Les Herbiers,FR,2021-05-17 07:46:28,46.8667,-1.0167,53.6,87,75,12.66
182,Marzuq,YE,2021-05-17 07:46:28,14.4,46.4667,93.24,14,7,6.76
183,Marawi,PH,2021-05-17 07:46:28,7.9986,124.2928,90.0,71,100,4.7
184,Pedasi,PA,2021-05-17 07:46:29,7.5333,-80.0333,72.0,99,100,13.49
185,Faanui,PF,2021-05-17 07:46:29,-16.4833,-151.75,80.71,76,18,16.13
186,Hobyo,SO,2021-05-17 07:46:30,5.3505,48.5268,87.26,64,38,19.15
187,Pecos,US,2021-05-17 07:46:30,31.4229,-103.4932,71.01,78,1,11.5
188,Alta Floresta,BR,2021-05-17 07:46:30,-9.8756,-56.0861,66.45,76,100,4.16
189,Saint-Georges,GD,2021-05-17 07:46:31,12.0564,-61.7485,78.62,82,39,13.87
190,Waipawa,NZ,2021-05-17 07:46:31,-41.4122,175.5153,57.99,94,94,11.5
191,Kahului,US,2021-05-17 07:45:55,20.8947,-156.47,71.6,73,40,10.36
192,Maicao,CO,2021-05-17 07:46:32,11.3832,-72.2432,78.51,81,100,8.95
193,Shumyachi,RU,2021-05-17 07:46:32,53.8583,32.4242,69.3,73,100,14.65
194,Katobu,ID,2021-05-17 07:46:33,-4.9408,122.5276,80.51,83,99,7.36
195,Vila Velha,BR,2021-05-17 07:46:33,-20.3297,-40.2925,68.0,94,40,2.3
196,Santiago Del Estero,AR,2021-05-17 07:42:47,-27.7951,-64.2615,66.07,75,74,4.07
197,Coquimbo,CL,2021-05-17 07:46:34,-29.9533,-71.3436,53.6,100,90,4.61
198,Bandarbeyla,SO,2021-05-17 07:46:34,9.4942,50.8122,95.22,48,59,16.44
199,Ushuaia,AR,2021-05-17 07:46:35,-54.8,-68.3,42.8,70,20,16.11
200,Mangai,CD,2021-05-17 07:46:35,-4.05,19.5333,76.5,87,100,1.21
201,Karratha,AU,2021-05-17 07:46:36,-20.7377,116.8463,79.86,40,100,11.45
202,Alugan,PH,2021-05-17 07:46:36,12.2188,125.4808,82.26,85,99,11.43
203,Kavieng,PG,2021-05-17 07:46:36,-2.5744,150.7967,83.23,79,88,13.8
204,Touros,BR,2021-05-17 07:46:37,-5.1989,-35.4608,71.6,94,20,2.3
205,Pevek,RU,2021-05-17 07:46:37,69.7008,170.3133,33.1,91,98,5.86
206,Hasaki,JP,2021-05-17 07:46:38,35.7333,140.8333,77.0,78,75,16.11
207,Muroto,JP,2021-05-17 07:46:39,33.2833,134.15,73.4,100,75,6.91
208,Dunmore East,IE,2021-05-17 07:46:39,52.1514,-6.9861,52.0,84,57,1.01
209,Batsfjord,NO,2021-05-17 07:46:39,70.6345,29.7185,35.6,100,90,9.22
210,Sur,OM,2021-05-17 07:46:40,22.5667,59.5289,94.59,37,0,8.77
211,Neiafu,TO,2021-05-17 07:46:40,-18.65,-173.9833,79.93,81,6,17.96
212,Nishihara,JP,2021-05-17 07:46:41,26.1842,127.7558,86.0,74,75,14.97
213,Mahebourg,MU,2021-05-17 07:46:41,-20.4081,57.7,82.4,54,40,12.66
214,Flinders,AU,2021-05-17 07:46:42,-34.5833,150.8552,55.0,73,45,1.01
215,Xai-Xai,MZ,2021-05-17 07:46:42,-25.0519,33.6442,76.71,63,55,12.75
216,Nelson Bay,AU,2021-05-17 07:46:42,-32.7167,152.15,60.01,71,20,9.95
217,Locri,IT,2021-05-17 07:46:43,38.2414,16.2623,73.99,56,45,3.44
218,Kabanjahe,ID,2021-05-17 07:46:43,3.1001,98.4908,87.8,74,75,9.22
219,Varhaug,NO,2021-05-17 07:46:44,58.6147,5.6457,53.01,84,100,7.74
220,Mali,GN,2021-05-17 07:46:44,12.079,-12.2982,89.6,43,0,9.22
221,Korla,CN,2021-05-17 07:46:44,41.7597,86.1469,71.42,23,100,4.59
222,Klaksvik,FO,2021-05-17 07:46:45,62.2266,-6.589,44.6,93,90,12.66
223,Gouyave,GD,2021-05-17 07:46:45,12.1646,-61.7296,78.53,80,24,16.46
224,Itacare,BR,2021-05-17 07:46:46,-14.2775,-38.9967,67.57,90,100,8.14
225,Ponta Do Sol,PT,2021-05-17 07:46:46,32.6667,-17.1,66.2,68,20,16.11
226,Farafangana,MG,2021-05-17 07:46:47,-22.8167,47.8333,78.67,69,1,9.86
227,Matagami,CA,2021-05-17 07:46:47,49.7502,-77.6328,46.4,87,90,5.75
228,Rincon,US,2021-05-17 07:46:48,32.296,-81.2354,57.2,88,1,2.71
229,Esperance,AU,2021-05-17 07:46:48,-33.8667,121.9,75.2,35,100,13.8
230,Neustadt,DE,2021-05-17 07:46:48,49.7117,12.0872,50.0,87,90,10.36
231,Jijiang,CN,2021-05-17 07:42:04,29.2906,106.2542,77.0,60,20,6.71
232,Scottsbluff,US,2021-05-17 07:46:49,41.8666,-103.6672,50.0,87,1,4.29
233,Chuzhou,CN,2021-05-17 07:46:50,32.3219,118.2978,72.0,45,84,3.85
234,Koping,SE,2021-05-17 07:46:51,59.514,15.9926,50.0,93,90,6.91
235,Kaa-Khem,RU,2021-05-17 07:46:51,51.6833,94.7333,55.42,82,100,6.67
236,Airai,TL,2021-05-17 07:46:51,-8.9266,125.4092,65.91,71,100,2.98
237,Kununurra,AU,2021-05-17 07:46:52,-15.7667,128.7333,84.2,23,8,10.36
238,Tucuman,AR,2021-05-17 07:46:52,-26.8241,-65.2226,64.4,82,90,2.3
239,Sao Joao Da Barra,BR,2021-05-17 07:46:53,-21.6403,-41.0511,69.03,79,72,5.77
240,Vinnytsya,UA,2021-05-17 07:46:53,49.2328,28.481,62.6,77,40,4.47
241,Ketchikan,US,2021-05-17 07:46:54,55.3422,-131.6461,41.0,87,1,3.44
242,Ixtapa,MX,2021-05-17 07:46:54,20.7,-105.2,77.0,81,0,2.71
243,Callaway,US,2021-05-17 07:46:54,30.153,-85.5699,64.4,82,1,6.91
244,Sitka,US,2021-05-17 07:46:55,57.0531,-135.33,42.8,81,75,5.75
245,Port Lavaca,US,2021-05-17 07:46:55,28.615,-96.6261,78.8,83,90,11.5
246,Santo Antonio Do Ica,BR,2021-05-17 07:46:56,-3.1022,-67.9397,72.7,99,100,1.48
247,Hervey Bay,AU,2021-05-17 07:46:56,-25.2986,152.8535,68.0,61,0,6.49
248,Henties Bay,NA,2021-05-17 07:46:56,-22.116,14.2845,65.1,72,24,5.88
249,Lata,PT,2021-05-17 07:46:57,40.1629,-8.3327,50.0,94,98,4.88
250,Gotsu,JP,2021-05-17 07:46:57,35.0,132.2167,62.6,100,75,3.44
251,Ambilobe,MG,2021-05-17 07:46:58,-13.2,49.05,87.33,48,81,5.14
252,Namibe,AO,2021-05-17 07:46:58,-15.1961,12.1522,80.76,45,0,5.97
253,Tiksi,RU,2021-05-17 07:46:58,71.6872,128.8694,32.02,94,49,8.5
254,Magomeni,TZ,2021-05-17 07:46:59,-6.8,39.25,79.47,84,100,5.95
255,Bubaque,GW,2021-05-17 07:46:59,11.2833,-15.8333,77.65,73,100,12.26
256,Lodja,CD,2021-05-17 07:47:00,-3.4833,23.4333,86.58,53,100,3.24
257,Puri,IN,2021-05-17 07:45:17,19.8,85.85,98.6,47,20,10.36
258,Den Helder,NL,2021-05-17 07:47:00,52.9599,4.7593,53.6,87,90,1.14
259,Bilma,NE,2021-05-17 07:47:01,18.6853,12.9164,98.76,8,0,19.19
260,Tchibanga,GA,2021-05-17 07:47:01,-2.85,11.0333,77.0,94,90,1.52
261,Kogon,UZ,2021-05-17 07:47:02,39.7228,64.5517,91.4,15,0,6.91
262,Portage,US,2021-05-17 07:47:02,41.1667,-81.1998,48.2,76,1,4.79
263,Poum,NC,2021-05-17 07:47:03,-20.2333,164.0167,77.14,74,94,15.35
264,Wattegama,LK,2021-05-17 07:47:03,6.7989,81.4808,93.2,66,75,5.75
265,Whitehorse,CA,2021-05-17 07:45:01,60.7161,-135.0538,37.0,93,75,3.44
266,Huangchuan,CN,2021-05-17 07:47:04,32.1272,115.0394,69.64,50,100,2.91
267,San Cristobal,VE,2021-05-17 07:47:04,7.7669,-72.225,66.06,93,100,2.21
268,Luwuk,ID,2021-05-17 07:47:05,-0.9516,122.7875,80.04,88,100,3.18
269,Mao,ES,2021-05-17 07:47:05,39.8885,4.2658,64.4,52,0,21.85
270,Manokwari,ID,2021-05-17 07:47:06,-0.8667,134.0833,81.5,80,75,5.32
271,Guerrero Negro,MX,2021-05-17 07:43:27,27.9769,-114.0611,58.6,81,4,19.06
272,Verkhnyaya Inta,RU,2021-05-17 07:47:06,65.9811,60.3094,48.56,66,100,12.37
273,Shingu,JP,2021-05-17 07:47:07,33.7333,135.9833,73.99,94,75,9.22
274,Haines Junction,CA,2021-05-17 07:47:07,60.7522,-137.5108,37.4,87,100,1.14
275,Rangpur,BD,2021-05-17 07:47:07,25.75,89.25,99.88,38,13,6.29
276,Playa Vicente,MX,2021-05-17 07:47:08,17.8333,-95.8167,77.0,82,90,2.44
277,Muli,MV,2021-05-17 07:47:08,2.9167,73.5667,84.47,74,94,12.03
278,Yulara,AU,2021-05-17 07:47:09,-25.2406,130.9889,69.8,16,55,17.27
279,Nansio,TZ,2021-05-17 07:47:09,-2.1333,33.05,74.59,70,87,9.64
280,Surt,LY,2021-05-17 07:47:10,31.2089,16.5887,79.83,29,85,6.55
281,Antofagasta,CL,2021-05-17 07:47:10,-23.65,-70.4,60.8,77,90,9.22
282,Ushtobe,KZ,2021-05-17 07:47:10,45.2514,77.9838,80.24,20,0,0.72
283,Effingham,US,2021-05-17 07:47:11,32.3669,-81.3332,57.2,94,1,3.47
284,Newport,GB,2021-05-17 07:47:11,51.5877,-2.9984,54.0,86,16,1.01
285,Ende,ID,2021-05-17 07:47:12,-8.8432,121.6623,80.89,73,100,3.91
286,Los Llanos De Aridane,ES,2021-05-17 07:47:12,28.6585,-17.9182,68.0,77,20,16.11
287,Nur,PL,2021-05-17 07:47:12,52.6683,22.3221,62.01,41,0,3.0
288,Viedma,AR,2021-05-17 07:47:13,-40.8135,-62.9967,46.94,82,57,4.81
289,Guarapari,BR,2021-05-17 07:47:13,-20.6667,-40.4975,68.0,94,40,2.3
290,Kedrovyy,RU,2021-05-17 07:47:14,56.1667,91.8167,53.6,37,0,6.71
291,Vila Franca Do Campo,PT,2021-05-17 07:47:15,37.7167,-25.4333,64.4,100,75,14.97
292,Hailar,CN,2021-05-17 07:47:16,49.2,119.7,70.27,28,79,16.98
293,Necochea,AR,2021-05-17 07:47:18,-38.5473,-58.7368,51.1,81,15,8.75
294,Khatanga,RU,2021-05-17 07:47:18,71.9667,102.5,24.24,83,100,10.74
295,Baiao,BR,2021-05-17 07:47:19,-2.7906,-49.6717,72.01,95,79,0.89
296,Janauba,BR,2021-05-17 07:47:20,-15.8025,-43.3089,63.3,74,91,4.27
297,East London,ZA,2021-05-17 07:47:21,-33.0153,27.9116,60.8,55,0,13.8
298,Reconquista,AR,2021-05-17 07:47:22,-29.15,-59.65,57.2,100,13,2.3
299,Kondoa,TZ,2021-05-17 07:47:22,-4.9,35.7833,74.44,57,79,7.65
300,Rawson,AR,2021-05-17 07:47:23,-43.3002,-65.1023,48.15,76,90,6.62
301,Creston,US,2021-05-17 07:47:24,41.0586,-94.3614,59.0,100,90,9.22
302,Adrar,MR,2021-05-17 07:47:24,20.5022,-10.0711,86.07,17,98,13.22
303,Yuksekova,TR,2021-05-17 07:47:25,37.5736,44.2872,69.8,35,40,8.05
304,Matara,LK,2021-05-17 07:47:26,5.9485,80.5353,89.73,61,100,12.57
305,Kulhudhuffushi,MV,2021-05-17 07:47:27,6.6221,73.07,85.01,73,7,17.22
306,Kavaratti,IN,2021-05-17 07:47:28,10.5669,72.642,83.7,77,98,19.04
307,Mayya,RU,2021-05-17 07:47:29,61.7333,130.2811,33.8,93,75,13.42
308,Ayan,RU,2021-05-17 07:47:29,56.45,138.1667,32.16,99,100,7.25
309,Coahuayana,MX,2021-05-17 07:47:30,18.7333,-103.6833,74.79,85,0,0.87
310,Gornopravdinsk,RU,2021-05-17 07:47:31,60.05,69.9,76.14,50,95,5.75
311,Parana,AR,2021-05-17 07:47:32,-31.732,-60.5238,57.0,93,71,5.39
312,Dingle,PH,2021-05-17 07:47:32,10.9995,122.6711,89.98,56,26,13.67
313,Tigil,RU,2021-05-17 07:47:33,57.8,158.6667,45.1,78,100,6.98
314,Nipawin,CA,2021-05-17 07:47:33,53.3668,-104.0009,50.0,66,75,9.22
315,Moron,AR,2021-05-17 07:47:34,-34.6534,-58.6198,51.01,93,0,4.76
316,West Plains,US,2021-05-17 07:43:10,36.7281,-91.8524,64.4,77,90,3.44
317,Berlevag,NO,2021-05-17 07:47:38,70.8578,29.0864,38.23,95,100,12.26
318,Sangar,RU,2021-05-17 07:47:39,63.9242,127.4739,33.69,98,100,7.9
319,Tessalit,ML,2021-05-17 07:47:41,20.1986,1.0114,99.57,11,68,9.15
320,Teluk Intan,MY,2021-05-17 07:47:42,4.0259,101.0213,82.4,89,40,2.3
321,Tilichiki,RU,2021-05-17 07:47:44,60.4667,166.1,32.07,97,100,8.34
322,Mackay,AU,2021-05-17 07:47:45,-21.15,149.2,71.6,56,85,12.66
323,Yerofey Pavlovich,RU,2021-05-17 07:47:45,53.9667,121.9667,53.96,30,100,8.19
324,Vestmannaeyjar,IS,2021-05-17 07:47:46,63.4427,-20.2734,40.71,64,98,3.62
325,Fortuna,US,2021-05-17 07:47:46,40.5982,-124.1573,51.01,100,90,5.75
326,Modra,SK,2021-05-17 07:47:46,48.334,17.3071,54.0,94,40,10.36
327,Sao Filipe,CV,2021-05-17 07:47:47,14.8961,-24.4956,73.47,69,71,8.41
328,Tarakan,ID,2021-05-17 07:47:49,3.3,117.6333,89.6,70,40,4.61
329,Samarai,PG,2021-05-17 07:47:51,-10.6167,150.6667,82.06,82,100,10.58
330,Singaraja,ID,2021-05-17 07:47:52,-8.112,115.0882,83.25,71,98,1.32
331,Faqirwali,PK,2021-05-17 07:43:22,29.4663,73.034,105.08,13,2,5.17
332,Beloha,MG,2021-05-17 07:47:53,-25.1667,45.05,83.55,31,0,5.23
333,Lavrentiya,RU,2021-05-17 07:47:53,65.5833,-171.0,30.43,90,100,1.54
334,Takoradi,GH,2021-05-17 07:47:54,4.8845,-1.7554,81.43,78,100,3.87
335,Mount Gambier,AU,2021-05-17 07:47:54,-37.8333,140.7667,53.6,94,75,6.91
336,Sorong,ID,2021-05-17 07:47:17,-0.8833,131.25,80.96,84,100,5.39
337,Sucre,BO,2021-05-17 07:47:56,-19.0333,-65.2627,49.48,81,56,3.06
338,Impfondo,CG,2021-05-17 07:47:57,1.6381,18.0667,77.47,85,99,2.21
339,Buldana,IN,2021-05-17 07:47:57,20.5333,76.1833,95.43,30,92,23.67
340,Puerto Del Rosario,ES,2021-05-17 07:47:57,28.5004,-13.8627,69.8,73,0,12.66
341,Bemidji,US,2021-05-17 07:43:02,47.4736,-94.8803,60.8,59,1,5.75
342,Brigantine,US,2021-05-17 07:47:58,39.4101,-74.3646,55.99,81,1,5.53
343,Isangel,VU,2021-05-17 07:47:59,-19.55,169.2667,76.59,85,63,11.5
344,Bonavista,CA,2021-05-17 07:48:01,48.6499,-53.1147,35.01,100,17,2.3
345,Jashpurnagar,IN,2021-05-17 07:48:03,22.9,84.15,101.23,21,15,11.01
346,Dauphin,CA,2021-05-17 07:48:04,51.1494,-100.0502,55.4,62,90,12.66
347,Bathurst,AU,2021-05-17 07:48:05,-33.4166,149.5806,48.99,69,51,6.62
348,Saint George,US,2021-05-17 07:48:05,37.1041,-113.5841,68.0,34,1,8.05
349,Grand Gaube,MU,2021-05-17 07:48:06,-20.0064,57.6608,81.0,60,0,10.0
350,Rizhao,CN,2021-05-17 07:48:06,35.4275,119.4553,71.58,44,100,6.53
351,Grand Island,US,2021-05-17 07:47:07,40.925,-98.342,57.99,88,90,8.05
352,Saint Anthony,US,2021-05-17 07:48:07,45.0205,-93.218,59.0,82,1,3.44
353,Ilam,NP,2021-05-17 07:45:22,26.9167,87.9167,78.73,61,88,4.14
354,Pelym,RU,2021-05-17 07:48:08,61.0108,61.9978,76.73,38,100,12.39
355,Salina,US,2021-05-17 07:48:09,38.8403,-97.6114,60.8,100,1,4.61
356,Port Blair,IN,2021-05-17 07:45:11,11.6667,92.75,87.8,70,40,10.36
357,Yumen,CN,2021-05-17 07:48:10,40.2833,97.2,75.9,11,100,21.5
358,Bougouni,ML,2021-05-17 07:48:11,11.417,-7.479,84.16,53,94,4.68
359,Shieli,KZ,2021-05-17 07:48:11,44.1667,66.75,88.29,12,0,23.17
360,Wajir,KE,2021-05-17 07:48:12,1.7471,40.0573,84.2,61,90,10.36
361,Waddan,LY,2021-05-17 07:48:13,29.1614,16.139,82.83,18,11,5.08
362,Itoman,JP,2021-05-17 07:48:13,26.1247,127.6694,86.0,89,75,13.8
363,Soyo,AO,2021-05-17 07:48:14,-6.1349,12.3689,78.8,94,20,3.44
364,Haicheng,CN,2021-05-17 07:48:14,40.8516,122.7475,82.71,13,36,10.09
365,Le Portel,FR,2021-05-17 07:48:15,50.7056,1.5757,51.8,93,90,11.5
366,Wuwei,CN,2021-05-17 07:48:15,37.9281,102.6414,72.07,17,58,10.65
367,Goundam,ML,2021-05-17 07:48:16,16.4145,-3.6708,98.47,14,10,11.9
368,Japura,ID,2021-05-17 07:48:16,-0.3167,102.35,85.51,68,99,3.18
369,Nanortalik,GL,2021-05-17 07:48:17,60.1432,-45.2371,36.88,74,77,1.81
370,Canoa,DO,2021-05-17 07:48:17,18.355,-71.1585,74.7,88,14,2.13
371,Langarud,IR,2021-05-17 07:48:17,37.197,50.1535,77.0,69,0,4.61
372,Deputatskiy,RU,2021-05-17 07:48:18,69.3,139.9,29.07,98,100,5.08
373,Cockburn Town,TC,2021-05-17 07:48:18,21.4612,-71.1419,79.32,75,15,12.75
374,Rocha,UY,2021-05-17 07:48:19,-34.4833,-54.3333,46.36,80,18,4.65
375,Plettenberg Bay,ZA,2021-05-17 07:48:19,-34.0527,23.3716,59.99,56,0,8.55
376,Vuktyl,RU,2021-05-17 07:48:20,63.8567,57.3094,57.4,83,100,6.8
377,Orlik,RU,2021-05-17 07:48:20,52.5178,99.825,52.92,55,86,10.54
378,Potosi,BO,2021-05-17 07:48:20,-19.5836,-65.7531,36.57,83,0,2.91
379,Saint-Philippe,RE,2021-05-17 07:48:21,-21.3585,55.7679,82.4,54,0,5.75
380,Birao,CF,2021-05-17 07:48:21,10.2849,22.7882,90.28,40,92,3.36
381,Half Moon Bay,US,2021-05-17 07:44:21,37.4636,-122.4286,53.6,93,90,4.61
382,Pisco,PE,2021-05-17 07:48:22,-13.7,-76.2167,62.6,88,75,2.3
383,Boa Vista,BR,2021-05-17 07:48:22,2.8197,-60.6733,75.2,94,90,2.3
384,Capreol,CA,2021-05-17 07:48:23,46.706,-80.9225,48.2,71,1,5.75
385,Vaini,TO,2021-05-17 07:48:23,-21.2,-175.2,77.0,94,40,5.75
386,Hami,CN,2021-05-17 07:48:24,42.8,93.45,79.75,16,49,3.71
387,Jackson,US,2021-05-17 07:48:24,42.4165,-122.8345,66.2,42,1,1.1
388,Lompoc,US,2021-05-17 07:48:25,34.6391,-120.4579,53.6,76,100,4.61
389,Pangody,RU,2021-05-17 07:48:25,65.85,74.4859,44.1,44,99,9.57
390,Honiara,SB,2021-05-17 07:48:26,-9.4333,159.95,80.49,86,71,8.01
391,Nisia Floresta,BR,2021-05-17 07:48:26,-6.0911,-35.2086,73.4,94,20,6.91
392,Bambous Virieux,MU,2021-05-17 07:48:27,-20.3428,57.7575,82.4,54,40,12.66
393,Shimoda,JP,2021-05-17 07:48:27,34.6667,138.95,72.0,100,75,17.27
394,Pilar,BR,2021-05-17 07:48:27,-9.5972,-35.9567,71.6,94,40,2.3
395,Alice Springs,AU,2021-05-17 07:48:28,-23.7,133.8833,66.2,19,0,14.97
396,Si Chiang Mai,TH,2021-05-17 07:48:28,17.9564,102.5867,97.0,52,40,4.61
397,San Quintin,MX,2021-05-17 07:48:29,30.4833,-115.95,59.61,72,99,13.78
398,Bria,CF,2021-05-17 07:48:29,6.5423,21.9863,84.52,55,60,3.91
399,Dandong,CN,2021-05-17 07:48:29,40.1292,124.3947,79.23,23,57,4.03
400,Rio Gallegos,AR,2021-05-17 07:48:30,-51.6226,-69.2181,44.6,87,75,23.02
401,Bad Freienwalde,DE,2021-05-17 07:48:30,52.7873,14.0304,60.01,84,54,1.01
402,Smithers,CA,2021-05-17 07:44:11,54.7804,-127.1743,46.4,71,90,2.73
403,Narsaq,GL,2021-05-17 07:48:31,60.9167,-46.05,33.8,64,20,1.14
404,Saint-Pierre,RE,2021-05-17 07:48:31,-21.3393,55.4781,82.4,54,0,5.75
405,Melilla,ES,2021-05-17 07:48:32,35.2937,-2.9383,77.0,41,0,12.66
406,Praxedis Guerrero,MX,2021-05-17 07:48:32,31.3667,-106.0167,78.8,11,1,27.63
407,Key West,US,2021-05-17 07:45:37,24.5557,-81.7826,78.8,65,20,9.22
408,Muramatsu,JP,2021-05-17 07:48:14,37.6833,139.1833,64.0,94,75,14.97
409,Limbang,MY,2021-05-17 07:48:33,4.75,115.0,89.01,79,75,8.05
410,Aden,YE,2021-05-17 07:48:34,12.7794,45.0367,88.93,67,10,8.93
411,Lagoa,PT,2021-05-17 07:48:34,39.05,-27.9833,61.74,93,96,11.39
412,Yomou,GN,2021-05-17 07:48:34,7.5603,-9.2653,72.99,93,100,0.96
413,Padang,ID,2021-05-17 07:48:35,-0.9492,100.3543,86.0,74,40,4.61
414,Malindi,KE,2021-05-17 07:48:35,-3.2175,40.1191,82.4,74,75,13.8
415,Sechura,PE,2021-05-17 07:48:36,-5.5569,-80.8222,67.42,80,73,10.42
416,Bredasdorp,ZA,2021-05-17 07:48:36,-34.5322,20.0403,55.4,71,20,5.75
417,Marsaxlokk,MT,2021-05-17 07:48:37,35.8419,14.5431,75.2,53,0,10.36
418,Banjar,ID,2021-05-17 07:48:37,-8.19,114.9675,84.2,79,20,16.11
419,Vicuna,CL,2021-05-17 07:48:37,-30.0319,-70.7081,53.6,100,90,4.61
420,Bengkulu,ID,2021-05-17 07:48:38,-3.8004,102.2655,82.38,84,100,9.13
421,Astana,KZ,2021-05-17 07:48:39,51.1801,71.446,86.0,25,0,8.95
422,Lakatoro,VU,2021-05-17 07:48:39,-16.0999,167.4164,80.91,80,80,9.78
423,Ban Tak,TH,2021-05-17 07:48:40,17.0432,99.0813,98.6,39,20,8.05
424,Tura,IN,2021-05-17 07:48:40,25.5198,90.2201,93.79,45,4,3.22
425,Ardmore,US,2021-05-17 07:48:40,34.1743,-97.1436,64.4,94,90,10.22
426,Belmonte,BR,2021-05-17 07:48:41,-15.8631,-38.8828,68.0,88,40,6.91
427,Makakilo City,US,2021-05-17 07:48:41,21.3469,-158.0858,75.2,64,40,6.91
428,Orichi,RU,2021-05-17 07:48:42,58.4036,49.0572,74.39,45,7,11.23
429,Northam,GB,2021-05-17 07:48:42,51.0333,-4.2167,52.0,90,12,3.0
430,Wenling,CN,2021-05-17 07:48:43,28.3669,121.36,69.01,92,100,10.22
431,Osoyoos,CA,2021-05-17 07:48:43,49.0331,-119.4524,66.2,48,100,2.3
432,Marsh Harbour,BS,2021-05-17 07:48:43,26.5412,-77.0636,73.35,60,18,11.43
433,Ilave,PE,2021-05-17 07:48:44,-16.0833,-69.6667,34.5,81,13,0.92
434,Tarko-Sale,RU,2021-05-17 07:48:45,64.9225,77.785,46.33,28,43,12.21
435,Davila,PH,2021-05-17 07:48:45,18.4726,120.5763,89.6,79,20,10.36
436,Arrecife,ES,2021-05-17 07:48:46,28.963,-13.5477,68.0,83,20,21.85
437,Lysyye Gory,RU,2021-05-17 07:48:46,51.5506,44.8414,76.87,42,54,10.11
438,Fougamou,GA,2021-05-17 07:48:47,-1.2154,10.5838,75.2,94,90,0.43
439,San Ciro De Acosta,MX,2021-05-17 07:48:47,21.6333,-99.8167,72.63,84,95,1.88
440,Vitim,RU,2021-05-17 07:48:48,59.4511,112.5578,38.32,25,100,10.96
441,Ordzhonikidze,KZ,2021-05-17 07:46:05,52.4411,61.7408,89.08,17,9,7.25
442,Kremenchuk,UA,2021-05-17 07:48:48,49.0973,33.4197,71.06,71,79,3.91
443,Carutapera,BR,2021-05-17 07:48:49,-1.195,-46.02,75.67,92,100,4.14
444,Khvorostyanka,RU,2021-05-17 07:48:49,52.6096,48.9597,86.97,27,16,10.25
445,Krasnoyarka,RU,2021-05-17 07:48:50,55.3333,73.1167,89.6,14,40,11.18
446,Tuatapere,NZ,2021-05-17 07:48:50,-46.1333,167.6833,46.0,89,97,3.0
447,Ranong,TH,2021-05-17 07:48:51,9.9658,98.6348,91.4,75,40,3.44
448,Riyadh,SA,2021-05-17 07:48:51,24.6877,46.7219,98.6,8,0,14.97
449,Trincomalee,LK,2021-05-17 07:48:51,8.5711,81.2335,88.75,64,91,11.18
450,Brits,ZA,2021-05-17 07:48:52,-25.6347,27.7802,60.8,50,0,4.09
451,Lokot,RU,2021-05-17 07:48:52,52.565,34.5776,73.63,57,58,15.12
452,Alyangula,AU,2021-05-17 07:48:53,-13.8483,136.4192,80.6,61,58,8.05
453,Kubinka,RU,2021-05-17 07:48:53,55.5839,36.69,75.2,43,0,11.18
454,Diu,IN,2021-05-17 07:48:53,20.7141,70.9822,79.74,80,100,41.58
455,Bathsheba,BB,2021-05-17 07:48:54,13.2167,-59.5167,78.8,69,40,19.57
456,Praia Da Vitoria,PT,2021-05-17 07:48:55,38.7333,-27.0667,66.2,94,75,15.59
457,Pringsewu,ID,2021-05-17 07:48:55,-5.3582,104.9744,85.66,71,86,1.48
458,Mazatlan,MX,2021-05-17 07:47:19,23.2167,-106.4167,80.01,94,1,3.71
459,Emerald,AU,2021-05-17 07:48:56,-23.5333,148.1667,71.6,18,0,10.36
460,Farmington,US,2021-05-17 07:47:33,36.7281,-108.2187,64.0,14,1,5.75
461,Oksfjord,NO,2021-05-17 07:48:56,70.2396,22.3479,50.0,57,0,11.5
462,Acari,PE,2021-05-17 07:48:57,-15.4311,-74.6158,66.38,73,19,2.13
463,Puerto Madryn,AR,2021-05-17 07:48:57,-42.7692,-65.0385,49.19,76,57,4.61
464,Chai Badan,TH,2021-05-17 07:48:58,15.2,101.1333,104.0,61,100,4.5
465,Lazaro Cardenas,MX,2021-05-17 07:48:58,17.9583,-102.2,80.22,73,1,2.17
466,San Luis,AR,2021-05-17 07:48:59,-33.295,-66.3356,53.56,68,15,5.79
467,San Policarpo,PH,2021-05-17 07:49:00,12.1791,125.5072,82.56,85,100,12.12
468,Baley,RU,2021-05-17 07:49:00,51.6,116.6333,51.71,66,99,10.87
469,Longyearbyen,SJ,2021-05-17 07:45:03,78.2186,15.6401,24.8,63,0,5.75
470,Leh,IN,2021-05-17 07:49:01,34.1667,77.5833,51.39,27,70,7.4
471,Aguas Vermelhas,BR,2021-05-17 07:49:01,-15.7472,-41.46,55.63,97,97,1.9
472,Borovoy,RU,2021-05-17 07:49:02,55.4333,86.0833,60.8,59,75,6.71
473,Koshurnikovo,RU,2021-05-17 07:49:02,54.1667,93.3,56.75,69,100,4.7
474,Port Hardy,CA,2021-05-17 07:49:03,50.6996,-127.4199,50.0,87,90,2.3
475,Trapani,IT,2021-05-17 07:49:03,37.8333,12.6667,75.0,60,0,5.75
476,Hamilton,US,2021-05-17 07:47:08,39.1834,-84.5333,59.0,94,1,3.36
477,Mount Isa,AU,2021-05-17 07:49:04,-20.7333,139.5,77.0,12,0,9.22
478,Upernavik,GL,2021-05-17 07:49:04,72.7868,-56.1549,27.39,93,100,4.7
479,Poso,ID,2021-05-17 07:49:05,-1.3959,120.7524,81.81,86,100,2.39
480,Beboto,TD,2021-05-17 07:49:05,8.2668,16.939,87.22,49,96,5.23
481,Severo-Yeniseyskiy,RU,2021-05-17 07:49:05,60.3725,93.0408,44.44,26,4,7.76
482,Avera,US,2021-05-17 07:49:06,33.194,-82.5271,57.2,88,1,5.99
483,Les Cayes,HT,2021-05-17 07:49:06,18.2,-73.75,75.33,85,19,2.98
484,Palmer,US,2021-05-17 07:49:07,42.1584,-72.3287,48.0,100,1,1.83
485,Hualmay,PE,2021-05-17 07:49:07,-11.0964,-77.6139,62.65,90,2,7.0
486,Rawah,IQ,2021-05-17 07:49:08,34.4816,41.9093,92.75,10,4,14.09
487,Ust-Nera,RU,2021-05-17 07:49:09,64.5667,143.2,48.13,56,100,4.27
488,Tuktoyaktuk,CA,2021-05-17 07:49:09,69.4541,-133.0374,17.8,91,14,10.76
489,Laguna,US,2021-05-17 07:49:10,38.421,-121.4238,54.0,82,1,9.22
490,Salinopolis,BR,2021-05-17 07:49:10,-0.6136,-47.3561,77.47,86,100,7.47
491,Saint-Francois,FR,2021-05-17 07:49:11,46.4154,3.9054,53.6,71,75,11.5
492,Komsomolskiy,UZ,2021-05-17 07:49:11,40.4272,71.7189,84.2,21,0,6.91
493,Sibolga,ID,2021-05-17 07:49:11,1.7427,98.7792,77.45,95,100,3.71
494,Esmeraldas,BR,2021-05-17 07:49:12,-19.7625,-44.3139,64.4,94,0,2.3
495,North Bend,US,2021-05-17 07:49:12,43.4065,-124.2243,51.8,93,90,3.44
496,Kruisfontein,ZA,2021-05-17 07:47:19,-34.0033,24.7314,61.0,65,0,3.0
497,Juan Lacaze,UY,2021-05-17 07:49:14,-34.4342,-57.4381,41.0,95,0,9.6
498,Dargaville,NZ,2021-05-17 07:49:14,-35.9333,173.8833,59.63,85,18,11.03
499,Port-Cartier,CA,2021-05-17 07:49:15,50.0334,-66.8654,42.8,93,98,5.75
500,Sorland,NO,2021-05-17 07:49:15,67.667,12.6934,44.91,89,100,0.63
501,Abapo,BO,2021-05-17 07:49:15,-18.8333,-63.4667,64.94,73,85,2.24
502,Kuryk,KZ,2021-05-17 07:49:16,43.2,51.65,86.85,15,0,23.4
503,Chuy,UY,2021-05-17 07:49:17,-33.6971,-53.4616,48.83,78,91,5.23
504,Pangoa,PE,2021-05-17 07:49:17,-12.1167,-73.0,65.79,98,62,2.82
505,Haimen,CN,2021-05-17 07:49:17,23.1935,116.6142,95.0,49,40,6.71
506,Mitsamiouli,KM,2021-05-17 07:49:18,-11.3847,43.2844,82.11,66,62,3.42
507,Iralaya,HN,2021-05-17 07:49:18,15.0,-83.2333,78.51,77,80,7.27
508,Quatre Cocos,MU,2021-05-17 07:49:19,-20.2078,57.7625,82.4,54,40,12.66
509,Pitea,SE,2021-05-17 07:47:08,65.3172,21.4794,46.4,100,90,4.61
510,Labuhan,ID,2021-05-17 07:49:20,-6.8844,112.2051,86.09,63,85,7.2
511,Chokurdakh,RU,2021-05-17 07:49:21,70.6333,147.9167,30.45,90,9,12.82
512,Santa Marinella,IT,2021-05-17 07:49:21,42.0345,11.8536,64.0,96,77,13.73
513,Aklavik,CA,2021-05-17 07:49:21,68.2191,-135.0107,42.8,52,100,10.36
514,Myitkyina,MM,2021-05-17 07:49:22,25.3833,97.4,101.34,25,30,3.87
515,Akyab,MM,2021-05-17 07:49:22,20.15,92.9,89.62,67,6,17.96
516,Santa Cruz,BO,2021-05-17 07:49:22,-17.8,-63.1667,71.6,88,40,3.69
517,Okhotsk,RU,2021-05-17 07:49:23,59.3833,143.3,39.25,68,98,7.18
518,Nabire,ID,2021-05-17 07:46:08,-3.3667,135.4833,81.16,86,99,1.54
519,Vao,NC,2021-05-17 07:49:24,-22.6667,167.4833,73.08,63,8,11.5
520,Quartucciu,IT,2021-05-17 07:49:25,39.2519,9.1794,71.01,73,0,12.66
521,Porto Murtinho,BR,2021-05-17 07:49:25,-21.6989,-57.8825,69.44,65,35,4.05
522,Kushiro,JP,2021-05-17 07:49:25,42.975,144.3747,62.6,82,75,4.61
523,Lyubim,RU,2021-05-17 07:49:26,58.3625,40.6843,69.8,59,81,3.11
524,Belyy Yar,RU,2021-05-17 07:49:26,53.6039,91.3903,66.2,59,20,4.47
525,San Andres,CO,2021-05-17 07:49:27,12.5847,-81.7006,80.6,78,75,10.36
526,Ziro,IN,2021-05-17 07:49:27,27.6333,93.8333,75.2,88,90,8.05
527,Russkaya Polyana,UA,2021-05-17 07:49:27,49.417,31.9201,62.17,91,100,4.18
528,Laerdalsoyri,NO,2021-05-17 07:49:28,61.098,7.4816,55.0,80,87,1.97
529,Husavik,IS,2021-05-17 07:49:29,66.0449,-17.3389,33.8,86,90,8.05
530,Tomatlan,MX,2021-05-17 07:49:29,19.9333,-105.25,74.05,77,0,2.53
531,Yagodnoye,RU,2021-05-17 07:49:30,62.55,149.6667,39.94,65,96,3.6
532,Abancay,PE,2021-05-17 07:49:30,-13.6339,-72.8814,51.13,88,25,0.07
533,San Rafael,AR,2021-05-17 07:49:31,-34.6177,-68.3301,52.72,62,86,3.67
534,Kendari,ID,2021-05-17 07:46:15,-3.945,122.4989,81.36,86,96,4.94
535,Mumford,GH,2021-05-17 07:49:31,5.2618,-0.759,80.64,81,100,7.11
536,Kargasok,RU,2021-05-17 07:49:32,59.0556,80.8572,54.59,74,99,3.56
537,Gat,IL,2021-05-17 07:49:32,31.61,34.7642,81.0,43,8,1.01
538,Gerash,IR,2021-05-17 07:49:32,27.6652,54.1371,96.8,17,0,4.61
539,Terme,TR,2021-05-17 07:49:33,41.2092,36.9739,64.99,77,75,6.91
540,Lev Tolstoy,RU,2021-05-17 07:49:34,53.2134,39.446,75.96,52,50,13.18
541,Mabaruma,GY,2021-05-17 07:49:34,8.2,-59.7833,71.73,99,36,1.88
542,Miranda,CO,2021-05-17 07:49:35,3.2499,-76.2281,69.8,94,75,2.3
543,Abu Kamal,SY,2021-05-17 07:49:35,34.4506,40.9171,89.55,12,3,7.67
544,Constitucion,CL,2021-05-17 07:45:56,-35.3333,-72.4167,55.89,53,100,3.76
545,Inverbervie,GB,2021-05-17 07:49:36,56.8446,-2.28,50.0,81,40,5.75
546,Walvis Bay,NA,2021-05-17 07:49:36,-22.9575,14.5053,57.2,67,0,2.3
547,Ilebo,CD,2021-05-17 07:49:36,-4.3167,20.5833,84.6,63,96,1.92
548,Onda,ES,2021-05-17 07:49:37,39.9667,-0.25,62.01,82,100,1.01
549,Krasnokamensk,RU,2021-05-17 07:49:37,50.0979,118.0369,54.66,72,100,10.78
550,Iqaluit,CA,2021-05-17 07:49:38,63.7506,-68.5145,15.8,86,40,5.99
551,Paragominas,BR,2021-05-17 07:48:11,-2.9667,-47.4833,70.57,98,87,1.07
552,Homer,US,2021-05-17 07:49:38,59.6425,-151.5483,43.0,75,1,5.75
553,Hohhot,CN,2021-05-17 07:49:39,40.8106,111.6522,68.0,32,20,6.71
554,Cananea,MX,2021-05-17 07:49:39,30.95,-110.3,51.01,28,0,2.8
555,Atlantic City,US,2021-05-17 07:49:40,39.3643,-74.4229,55.0,81,1,4.83
556,Broken Hill,AU,2021-05-17 07:49:40,-31.95,141.4333,59.0,47,0,10.36
557,Petauke,ZM,2021-05-17 07:49:40,-14.2426,31.3253,78.69,39,0,3.15
558,Druskininkai,LT,2021-05-17 07:49:41,54.0167,23.9667,55.4,88,90,2.24
559,La Paz,BO,2021-05-17 07:45:04,-16.5,-68.15,28.4,93,20,6.91
560,Balagansk,RU,2021-05-17 07:49:41,54.0103,103.0544,49.96,58,100,12.82
561,Dabola,GN,2021-05-17 07:49:42,10.75,-11.1167,81.52,55,100,1.61
562,Clyde River,CA,2021-05-17 07:49:42,70.4692,-68.5914,19.4,93,90,2.3
563,Nouadhibou,MR,2021-05-17 07:49:43,20.931,-17.0347,66.2,94,4,13.8
564,Plaridel,PH,2021-05-17 07:49:01,14.8872,120.8572,100.4,49,20,11.5
565,Qiongshan,CN,2021-05-17 07:49:44,20.0058,110.3542,96.8,52,40,11.18
566,Yuancheng,CN,2021-05-17 07:49:44,36.652,107.7896,69.03,18,75,4.83
567,Hof,DE,2021-05-17 07:49:44,50.3167,11.9167,48.2,87,90,8.05
568,Dunhua,CN,2021-05-17 07:49:45,43.3725,128.2425,71.49,31,1,7.92
569,Souillac,MU,2021-05-17 07:49:45,-20.5167,57.5167,82.4,54,40,12.66
570,Hambantota,LK,2021-05-17 07:49:46,6.1241,81.1185,93.2,66,75,5.75
571,Farim,GW,2021-05-17 07:49:46,12.4839,-15.2217,78.8,57,0,3.36
572,Abramovka,RU,2021-05-17 07:49:47,51.1886,41.0202,76.14,48,46,15.88
573,Evensk,RU,2021-05-17 07:49:47,61.95,159.2333,35.04,85,85,16.26
574,At-Bashi,KG,2021-05-17 07:49:48,41.1702,75.8106,61.05,21,1,3.4
575,Ojinaga,MX,2021-05-17 07:49:11,29.5667,-104.4167,77.0,50,1,8.05
576,Pimentel,PE,2021-05-17 07:49:48,-6.8367,-79.9342,64.0,87,59,3.0
577,Talakan,RU,2021-05-17 07:49:49,50.3167,130.3667,68.36,36,16,9.08
578,Kamenka,RU,2021-05-17 07:49:49,51.3223,42.7678,78.37,41,98,15.86
579,Arman,RU,2021-05-17 07:49:50,59.7,150.1667,36.97,88,100,14.65
580,Koroni,GR,2021-05-17 07:49:50,36.8,21.95,75.2,38,20,10.36
581,Anadyr,RU,2021-05-17 07:49:50,64.75,177.4833,32.0,93,75,6.71
582,Moose Factory,CA,2021-05-17 07:49:51,51.2585,-80.6094,53.6,58,1,11.5
583,Taebla,EE,2021-05-17 07:49:51,58.9547,23.7419,64.4,68,20,9.22
584,Kribi,CM,2021-05-17 07:49:52,2.95,9.9167,81.09,76,100,2.01
585,Pierre,US,2021-05-17 07:45:07,44.3683,-100.351,55.99,93,90,6.17
586,Vila,PT,2021-05-17 07:49:52,42.0304,-8.1588,50.0,89,99,1.01
587,Udachnyy,RU,2021-05-17 07:49:53,66.4167,112.4,25.97,92,100,17.78
588,Libertador General San Martin,AR,2021-05-17 07:49:53,-23.8064,-64.7876,64.0,93,92,1.63
589,Superior,US,2021-05-17 07:49:54,46.7208,-92.1041,55.4,100,90,3.62
590,Turka,UA,2021-05-17 07:49:54,49.1541,23.0297,63.0,68,0,4.41
591,Sikonge,TZ,2021-05-17 07:49:55,-5.6333,32.7667,75.7,58,99,6.67
592,Saint-Paul,RE,2021-05-17 07:49:55,-21.0096,55.2707,80.6,61,20,19.57
593,Praia,CV,2021-05-17 07:49:55,14.9215,-23.5087,69.8,78,75,14.97
594,Atasu,KZ,2021-05-17 07:49:56,48.6814,71.6433,81.97,27,29,14.79
595,Taman,RU,2021-05-17 07:49:56,45.2117,36.7161,62.6,77,75,15.66
596,Kajaani,FI,2021-05-17 07:49:57,64.2273,27.7285,62.6,72,0,10.36
597,Mosquera,CO,2021-05-17 07:49:57,4.7059,-74.2302,53.6,94,40,4.61
598,Owando,CG,2021-05-17 07:45:08,-0.4819,15.8999,75.29,91,89,2.8
599,Stephenville,US,2021-05-17 07:49:58,32.2207,-98.2023,68.0,88,75,3.44
600,Port-Gentil,GA,2021-05-17 07:49:58,-0.7193,8.7815,80.6,94,20,4.61
601,Sumbe,AO,2021-05-17 07:49:59,-11.2061,13.8437,78.8,65,20,4.61
602,Sosnovo-Ozerskoye,RU,2021-05-17 07:50:00,52.5249,111.5418,52.92,33,77,18.66
603,Jinxiang,CN,2021-05-17 07:50:00,27.4327,120.6062,68.2,94,100,12.44
604,Shahr-E Babak,IR,2021-05-17 07:50:01,30.1165,55.1186,79.41,14,5,6.26
605,Arrifes,PT,2021-05-17 07:50:01,37.7667,-25.7,64.4,100,75,14.97
606,Nouakchott,MR,2021-05-17 07:50:01,18.0858,-15.9785,73.4,68,96,14.97
607,Kiunga,PG,2021-05-17 07:50:03,-6.1219,141.2906,78.24,97,100,2.55
608,Nantucket,US,2021-05-17 07:50:03,41.2835,-70.0995,51.01,93,1,3.44
609,Palana,RU,2021-05-17 07:50:03,59.1167,159.9667,37.78,70,100,6.06
610,Barbastro,ES,2021-05-17 07:50:04,42.0356,0.1269,57.2,54,20,19.57
611,Meulaboh,ID,2021-05-17 07:50:04,4.1363,96.1285,79.72,88,100,12.59
612,Saint-Joseph,RE,2021-05-17 07:50:05,-21.3667,55.6167,82.4,54,0,5.75
613,Pitimbu,BR,2021-05-17 07:50:05,-7.4706,-34.8086,71.6,100,20,5.75
614,Valparaiso,CL,2021-05-17 07:50:05,-33.0393,-71.6273,53.01,76,100,1.83
615,Belaya Gora,RU,2021-05-17 07:50:06,68.5333,146.4167,35.1,92,100,9.6
616,Sheridan,US,2021-05-17 07:50:06,44.8333,-106.9173,53.6,66,1,6.91
617,Kerema,PG,2021-05-17 07:50:07,-7.9631,145.7785,80.08,87,100,2.68
618,Leningradskiy,RU,2021-05-17 07:50:08,69.3833,178.4167,31.37,90,100,10.69
619,Awjilah,LY,2021-05-17 07:50:08,29.1081,21.2869,77.27,30,0,4.97
620,Belomorsk,RU,2021-05-17 07:50:08,64.5232,34.7668,57.29,61,26,5.59
621,Tarrafal,CV,2021-05-17 07:50:09,15.2833,-23.7667,69.8,78,75,14.97
622,Campina Grande Do Sul,BR,2021-05-17 07:50:09,-25.3056,-49.0553,55.99,99,25,3.04
623,Rabo De Peixe,PT,2021-05-17 07:50:10,37.8,-25.5833,64.4,100,75,14.97
624,Heihe,CN,2021-05-17 07:50:10,50.2441,127.4902,71.6,21,40,8.95
625,Maltahohe,NA,2021-05-17 07:50:11,-24.8333,16.9833,62.89,29,40,6.31
626,Xuddur,SO,2021-05-17 07:50:11,4.1213,43.8894,89.06,43,0,18.95
627,Port Augusta,AU,2021-05-17 07:50:11,-32.5,137.7667,60.8,59,0,9.22
628,Springbok,ZA,2021-05-17 07:50:12,-29.6643,17.8865,51.8,71,0,5.75
629,Kenai,US,2021-05-17 07:50:12,60.5544,-151.2583,42.8,93,1,11.5
630,Westport,US,2021-05-17 07:50:13,41.1415,-73.3579,53.6,82,1,4.43
631,Porto Seguro,BR,2021-05-17 07:48:12,-16.4497,-39.0647,68.0,88,40,6.91
632,Ugoofaaru,MV,2021-05-17 07:50:14,5.6667,73.0,85.21,73,13,15.59
633,Elat,IL,2021-05-17 07:50:15,29.5581,34.9482,89.6,23,0,11.5
634,Ambulu,ID,2021-05-17 07:50:15,-8.345,113.6058,83.28,71,24,9.95
635,Lalibela,ET,2021-05-17 07:50:16,12.0333,39.0333,72.19,41,22,3.91
636,Weligama,LK,2021-05-17 07:50:16,5.9667,80.4167,88.57,64,98,11.65
637,Sao Desiderio,BR,2021-05-17 07:50:17,-12.3633,-44.9733,67.37,57,100,3.47
638,Gigmoto,PH,2021-05-17 07:50:17,13.7796,124.39,83.39,82,79,9.35
639,Raudeberg,NO,2021-05-17 07:50:18,61.9875,5.1352,54.0,81,75,11.5
640,Martinsburg,US,2021-05-17 07:50:18,39.4562,-77.9639,44.01,93,1,3.44
641,Zalaszentgrot,HU,2021-05-17 07:50:19,46.9447,17.0792,55.4,94,75,6.91
642,Vestmanna,FO,2021-05-17 07:50:19,62.1564,-7.1664,44.6,93,90,12.66
643,Cordoba,AR,2021-05-17 07:49:00,-31.4135,-64.1811,53.01,87,0,8.05
644,Bambanglipuro,ID,2021-05-17 07:50:20,-7.95,110.2833,82.58,71,93,11.74
645,Oktyabrskoye,RU,2021-05-17 07:50:20,43.0645,44.7417,91.4,27,20,6.71
646,Menongue,AO,2021-05-17 07:50:21,-14.6585,17.691,73.13,34,0,7.27
647,Cutervo,PE,2021-05-17 07:50:21,-6.379,-78.8157,48.63,94,44,3.51
648,Zeya,RU,2021-05-17 07:50:22,53.75,127.2667,57.18,28,98,10.76
649,Namatanai,PG,2021-05-17 07:50:22,-3.6667,152.4333,81.43,81,60,11.32
650,Katete,UG,2021-05-17 07:50:23,-0.7818,29.7544,78.73,52,31,2.53
651,Gerede,TR,2021-05-17 07:50:23,40.8008,32.1969,56.14,60,16,7.4
652,Basco,PH,2021-05-17 07:50:24,20.4487,121.9702,83.01,80,22,13.18
653,Moroni,KM,2021-05-17 07:50:24,-11.7022,43.2551,83.66,64,21,8.16
654,Capiibary,PY,2021-05-17 07:50:25,-24.8,-56.0333,64.38,75,71,2.77
655,Dorado,PR,2021-05-17 07:50:25,18.4588,-66.2677,78.01,91,2,5.86
656,Puerto Baquerizo Moreno,EC,2021-05-17 07:50:25,-0.9,-89.6,74.17,83,99,9.91
657,Tianpeng,CN,2021-05-17 07:50:26,30.9866,103.9393,78.01,53,75,1.88
658,Gornozavodsk,RU,2021-05-17 07:50:27,58.3758,58.3211,76.35,42,69,13.13
659,Karpogory,RU,2021-05-17 07:50:27,64.0019,44.4451,58.08,70,100,7.14
660,Fethiye,TR,2021-05-17 07:50:28,36.6217,29.1164,75.2,53,0,10.36
661,Hilton Head Island,US,2021-05-17 07:46:14,32.2163,-80.7526,63.0,88,1,2.77
662,Wanning,CN,2021-05-17 07:50:29,18.8003,110.3967,89.44,66,27,13.4
663,Codajas,BR,2021-05-17 07:50:29,-3.8367,-62.0569,73.51,92,100,1.61
664,Rock Sound,BS,2021-05-17 07:50:29,24.9,-76.2,76.64,61,100,15.23
665,Penzance,GB,2021-05-17 07:50:30,50.1186,-5.5371,52.0,87,75,19.57
666,Provost,CA,2021-05-17 07:50:30,52.3501,-110.2683,60.8,48,38,10.36
667,Aripuana,BR,2021-05-17 07:50:31,-9.1667,-60.6333,71.73,82,100,2.51
668,Algiers,DZ,2021-05-17 07:50:31,36.7525,3.042,73.4,46,0,3.44
669,Jieshi,CN,2021-05-17 07:50:31,22.8134,115.8257,85.53,75,10,15.9
670,Teguise,ES,2021-05-17 07:50:32,29.0605,-13.564,68.0,83,20,21.85
671,Tautira,PF,2021-05-17 07:50:32,-17.7333,-149.15,78.8,83,20,3.44
672,Mirnyy,RU,2021-05-17 07:50:33,62.5353,113.9611,30.51,46,100,13.18
673,Acarau,BR,2021-05-17 07:50:34,-2.8856,-40.12,73.94,88,17,9.71
674,Black Diamond,US,2021-05-17 07:50:34,47.3087,-122.0032,57.0,96,39,1.01
675,Charlestown,AU,2021-05-17 07:46:35,-32.95,151.6667,61.0,65,14,4.74
676,Bukan,IR,2021-05-17 07:50:35,36.521,46.2089,84.61,13,2,15.57
677,Barra Velha,BR,2021-05-17 07:50:35,-26.6322,-48.6847,62.01,89,20,3.47
678,Ngunguru,NZ,2021-05-17 07:50:35,-35.6167,174.5,57.0,88,0,1.99
679,Uige,AO,2021-05-17 07:50:36,-7.6087,15.0613,77.76,53,90,3.42
680,Karasjok,NO,2021-05-17 07:50:36,69.4719,25.5112,44.6,76,75,14.97
681,Coihaique,CL,2021-05-17 07:50:37,-45.5752,-72.0662,32.0,93,100,2.3
682,Kitsuki,JP,2021-05-17 07:50:37,33.4167,131.6167,69.8,88,75,3.44
683,Ulladulla,AU,2021-05-17 07:50:38,-35.35,150.4667,57.2,58,0,2.3
684,Blackburn,GB,2021-05-17 07:48:56,53.75,-2.4833,48.99,87,100,8.01
685,Port Moresby,PG,2021-05-17 07:49:18,-9.4431,147.1797,84.2,84,75,17.27
686,Corbu,RO,2021-05-17 07:50:38,44.3833,28.65,66.2,77,0,11.5
687,Muros,ES,2021-05-17 07:50:39,42.7762,-9.0603,57.0,93,83,0.98
688,Sorochinsk,RU,2021-05-17 07:50:39,52.4338,53.1583,87.39,21,1,10.47
689,Adwa,ET,2021-05-17 07:50:40,14.1646,38.8955,79.95,18,5,5.26
690,Sioux Lookout,CA,2021-05-17 07:50:40,50.1001,-91.917,55.4,82,90,4.61
691,Jabinyanah,TN,2021-05-17 07:50:40,35.035,10.9081,80.6,34,0,10.36
692,Yola,NG,2021-05-17 07:50:41,9.2,12.4833,85.15,59,100,3.89
693,Merauke,ID,2021-05-17 07:50:41,-8.4667,140.3333,80.53,84,41,17.31
694,Havant,GB,2021-05-17 07:50:42,50.8567,-0.9856,53.01,89,69,3.0
695,Kyshtovka,RU,2021-05-17 07:50:42,56.555,76.6271,80.6,39,27,10.02
696,Manggar,ID,2021-05-17 07:50:42,-2.8833,108.2667,85.19,71,100,10.2
